$GPRMC,215818.00,A,4955.13626,N,01054.46497,E,19.565,94.97,040823,,,A*6C
$GPRMC,215819.00,A,4955.13568,N,01054.47397,E,20.335,97.01,040823,,,A*67
$GPRMC,215820.00,A,4955.13477,N,01054.48320,E,20.998,98.85,040823,,,A*6F
$GPRMC,215821.00,A,4955.13360,N,01054.49259,E,21.715,101.79,040823,,,A*59
$GPRMC,215822.00,A,4955.13192,N,01054.50177,E,21.898,105.60,040823,,,A*54
$GPRMC,215823.00,A,4955.12953,N,01054.51023,E,21.646,111.26,040823,,,A*5A
$GPRMC,215824.00,A,4955.12658,N,01054.51878,E,22.055,116.25,040823,,,A*5C
$GPRMC,215825.00,A,4955.12312,N,01054.52723,E,22.623,121.77,040823,,,A*50
$GPRMC,215826.00,A,4955.11931,N,01054.53558,E,23.268,124.59,040823,,,A*57
$GPRMC,215827.00,A,4955.11538,N,01054.54399,E,23.715,125.59,040823,,,A*51
$GPRMC,215828.00,A,4955.11153,N,01054.55276,E,24.155,125.37,040823,,,A*5B
$GPRMC,215829.00,A,4955.10766,N,01054.56116,E,23.917,125.85,040823,,,A*5D
$GPRMC,215830.00,A,4955.10371,N,01054.56959,E,23.950,126.10,040823,,,A*58
$GPRMC,215831.00,A,4955.09962,N,01054.57783,E,24.037,126.83,040823,,,A*54
$GPRMC,215832.00,A,4955.09556,N,01054.58600,E,23.972,127.21,040823,,,A*5F
$GPRMC,215833.00,A,4955.09176,N,01054.59454,E,23.973,126.64,040823,,,A*5B
$GPRMC,215834.00,A,4955.08785,N,01054.60275,E,23.890,127.11,040823,,,A*57
$GPRMC,215835.00,A,4955.08397,N,01054.61095,E,23.797,127.06,040823,,,A*52
$GPRMC,215836.00,A,4955.08012,N,01054.61892,E,23.385,127.19,040823,,,A*59
$GPRMC,215837.00,A,4955.07638,N,01054.62662,E,22.814,127.18,040823,,,A*58
$GPRMC,215838.00,A,4955.07285,N,01054.63431,E,22.163,126.80,040823,,,A*59
$GPRMC,215839.00,A,4955.06922,N,01054.64110,E,21.066,129.44,040823,,,A*5E
$GPRMC,215840.00,A,4955.06530,N,01054.64699,E,20.217,135.54,040823,,,A*50
$GPRMC,215841.00,A,4955.06128,N,01054.65163,E,18.980,143.60,040823,,,A*57
$GPRMC,215842.00,A,4955.05658,N,01054.65451,E,18.387,155.17,040823,,,A*59
$GPRMC,215843.00,A,4955.05177,N,01054.65606,E,17.728,165.45,040823,,,A*58
$GPRMC,215844.00,A,4955.04712,N,01054.65646,E,16.912,174.92,040823,,,A*53
$GPRMC,215845.00,A,4955.04229,N,01054.65505,E,16.925,188.07,040823,,,A*50
$GPRMC,215846.00,A,4955.03781,N,01054.65307,E,16.665,193.99,040823,,,A*51
$GPRMC,215847.00,A,4955.03374,N,01054.64926,E,16.608,206.53,040823,,,A*54
$GPRMC,215848.00,A,4955.02950,N,01054.64430,E,17.687,214.45,040823,,,A*5E
$GPRMC,215849.00,A,4955.02512,N,01054.63896,E,18.783,217.43,040823,,,A*5D
$GPRMC,215850.00,A,4955.02049,N,01054.63329,E,19.894,218.42,040823,,,A*57
$GPRMC,215851.00,A,4955.01567,N,01054.62723,E,21.069,218.54,040823,,,A*55
$GPRMC,215852.00,A,4955.01063,N,01054.62140,E,21.857,217.98,040823,,,A*5E
$GPRMC,215853.00,A,4955.00537,N,01054.61536,E,22.711,217.95,040823,,,A*5F
$GPRMC,215854.00,A,4954.99999,N,01054.60927,E,23.331,217.44,040823,,,A*57
$GPRMC,215855.00,A,4954.99475,N,01054.60343,E,23.188,216.64,040823,,,A*52
$GPRMC,215856.00,A,4954.98972,N,01054.59772,E,22.694,216.73,040823,,,A*5B
$GPRMC,215857.00,A,4954.98488,N,01054.59261,E,21.678,215.66,040823,,,A*53
$GPRMC,215858.00,A,4954.98039,N,01054.58845,E,19.970,212.65,040823,,,A*57
$GPRMC,215859.00,A,4954.97640,N,01054.58476,E,18.112,210.65,040823,,,A*52
$GPRMC,215900.00,A,4954.97264,N,01054.58203,E,16.326,209.86,040823,,,A*57
$GPRMC,215901.00,A,4954.96980,N,01054.57894,E,14.294,215.76,040823,,,A*55
$GPRMC,215902.00,A,4954.96835,N,01054.57591,E,11.657,225.67,040823,,,A*5C
$GPRMC,215903.00,A,4954.96758,N,01054.57302,E,9.741,235.35,040823,,,A*6C
$GPRMC,215904.00,A,4954.96759,N,01054.57149,E,6.668,239.49,040823,,,A*65
$GPRMC,215905.00,A,4954.96926,N,01054.57159,E,3.429,260.18,040823,,,A*69
$GPRMC,215906.00,A,4954.97022,N,01054.57145,E,3.043,307.60,040823,,,A*6C
$GPRMC,215907.00,A,4954.97082,N,01054.57191,E,2.969,341.94,040823,,,A*67
$GPRMC,215908.00,A,4954.97139,N,01054.57227,E,2.366,1.64,040823,,,A*6A
$GPRMC,215909.00,A,4954.97168,N,01054.57262,E,1.527,10.43,040823,,,A*5B
$GPRMC,215910.00,A,4954.97198,N,01054.57281,E,1.225,,040823,,,A*7C
$GPRMC,215911.00,A,4954.97220,N,01054.57300,E,1.042,,040823,,,A*76
$GPRMC,215912.00,A,4954.97263,N,01054.57321,E,1.575,24.86,040823,,,A*56
$GPRMC,215913.00,A,4954.97307,N,01054.57378,E,2.258,37.19,040823,,,A*57
$GPRMC,215914.00,A,4954.97382,N,01054.57451,E,3.263,39.89,040823,,,A*5F
$GPRMC,215915.00,A,4954.97519,N,01054.57605,E,6.199,40.49,040823,,,A*58
$GPRMC,215916.00,A,4954.97774,N,01054.57902,E,11.600,40.27,040823,,,A*63
$GPRMC,215917.00,A,4954.98179,N,01054.58391,E,18.587,40.68,040823,,,A*67
$GPRMC,215918.00,A,4954.98728,N,01054.59045,E,24.958,40.53,040823,,,A*68
$GPRMC,215919.00,A,4954.99406,N,01054.59849,E,30.441,40.17,040823,,,A*63
$GPRMC,215920.00,A,4955.00211,N,01054.60777,E,35.656,39.35,040823,,,A*6F
$GPRMC,215921.00,A,4955.01115,N,01054.61821,E,40.426,38.47,040823,,,A*66
$GPRMC,215922.00,A,4955.02108,N,01054.62965,E,44.328,38.15,040823,,,A*62
$GPRMC,215923.00,A,4955.03168,N,01054.64219,E,47.944,38.43,040823,,,A*62
$GPRMC,215924.00,A,4955.04321,N,01054.65548,E,51.354,37.95,040823,,,A*67
$GPRMC,215925.00,A,4955.05548,N,01054.66958,E,54.644,37.66,040823,,,A*6D
$GPRMC,215926.00,A,4955.06823,N,01054.68427,E,57.051,37.43,040823,,,A*60
$GPRMC,215927.00,A,4955.08142,N,01054.69964,E,59.330,37.58,040823,,,A*6A
$GPRMC,215928.00,A,4955.09515,N,01054.71560,E,61.730,37.56,040823,,,A*62
$GPRMC,215929.00,A,4955.10932,N,01054.73198,E,63.621,37.35,040823,,,A*65
$GPRMC,215930.00,A,4955.12373,N,01054.74847,E,64.333,37.13,040823,,,A*69
$GPRMC,215931.00,A,4955.13820,N,01054.76479,E,64.286,36.70,040823,,,A*6C
$GPRMC,215932.00,A,4955.15254,N,01054.78104,E,63.974,36.57,040823,,,A*65
$GPRMC,215933.00,A,4955.16677,N,01054.79726,E,63.788,36.52,040823,,,A*6D
$GPRMC,215934.00,A,4955.18095,N,01054.81343,E,63.532,36.55,040823,,,A*6A
$GPRMC,215935.00,A,4955.19500,N,01054.82964,E,63.259,36.67,040823,,,A*64
$GPRMC,215936.00,A,4955.20906,N,01054.84569,E,63.001,36.54,040823,,,A*6F
$GPRMC,215937.00,A,4955.22320,N,01054.86161,E,62.984,36.34,040823,,,A*6F
$GPRMC,215938.00,A,4955.23723,N,01054.87760,E,62.910,36.40,040823,,,A*6E
$GPRMC,215939.00,A,4955.25126,N,01054.89367,E,62.900,36.57,040823,,,A*60
$GPRMC,215940.00,A,4955.26537,N,01054.90974,E,63.058,36.58,040823,,,A*63
$GPRMC,215941.00,A,4955.27943,N,01054.92588,E,63.028,36.67,040823,,,A*6A
$GPRMC,215942.00,A,4955.29352,N,01054.94200,E,63.007,36.71,040823,,,A*66
$GPRMC,215943.00,A,4955.30759,N,01054.95821,E,63.098,36.81,040823,,,A*61
$GPRMC,215944.00,A,4955.32172,N,01054.97435,E,63.117,36.76,040823,,,A*6E
$GPRMC,215945.00,A,4955.33578,N,01054.99059,E,63.119,36.97,040823,,,A*61
$GPRMC,215946.00,A,4955.34978,N,01055.00686,E,62.975,37.06,040823,,,A*66
$GPRMC,215947.00,A,4955.36383,N,01055.02299,E,62.889,36.85,040823,,,A*6B
$GPRMC,215948.00,A,4955.37795,N,01055.03911,E,62.730,36.79,040823,,,A*62
$GPRMC,215949.00,A,4955.39196,N,01055.05521,E,62.266,36.85,040823,,,A*64
$GPRMC,215950.00,A,4955.40594,N,01055.07122,E,62.384,36.95,040823,,,A*6D
$GPRMC,215951.00,A,4955.41997,N,01055.08729,E,62.419,36.81,040823,,,A*66
$GPRMC,215952.00,A,4955.43323,N,01055.10275,E,58.808,37.23,040823,,,A*6B
$GPRMC,215953.00,A,4955.44553,N,01055.11705,E,53.827,37.34,040823,,,A*6F
$GPRMC,215954.00,A,4955.45647,N,01055.12976,E,47.329,37.21,040823,,,A*62
$GPRMC,215955.00,A,4955.46592,N,01055.14082,E,40.784,37.13,040823,,,A*6A
$GPRMC,215956.00,A,4955.47406,N,01055.15016,E,35.093,36.71,040823,,,A*6E
$GPRMC,215957.00,A,4955.48129,N,01055.15852,E,31.068,37.44,040823,,,A*67
$GPRMC,215958.00,A,4955.48766,N,01055.16610,E,28.114,38.06,040823,,,A*65
$GPRMC,215959.00,A,4955.49359,N,01055.17317,E,26.066,38.36,040823,,,A*67
$GPRMC,220000.00,A,4955.49883,N,01055.17977,E,23.604,39.52,040823,,,A*60
$GPRMC,220001.00,A,4955.50310,N,01055.18565,E,19.253,42.71,040823,,,A*6A
$GPRMC,220002.00,A,4955.50653,N,01055.19077,E,16.381,45.68,040823,,,A*62
$GPRMC,220003.00,A,4955.50919,N,01055.19552,E,13.785,50.14,040823,,,A*6A
$GPRMC,220004.00,A,4955.51105,N,01055.20014,E,12.192,57.44,040823,,,A*67
$GPRMC,220005.00,A,4955.51257,N,01055.20433,E,10.821,60.58,040823,,,A*69
$GPRMC,220006.00,A,4955.51434,N,01055.20747,E,9.317,53.06,040823,,,A*54
$GPRMC,220007.00,A,4955.51653,N,01055.20949,E,8.725,37.33,040823,,,A*56
$GPRMC,220008.00,A,4955.51910,N,01055.21022,E,8.752,19.78,040823,,,A*57
$GPRMC,220009.00,A,4955.52181,N,01055.20918,E,9.658,0.96,040823,,,A*66
$GPRMC,220010.00,A,4955.52347,N,01055.20659,E,8.363,334.62,040823,,,A*6F
$GPRMC,220011.00,A,4955.52405,N,01055.20369,E,7.027,317.37,040823,,,A*64
$GPRMC,220012.00,A,4955.52355,N,01055.20151,E,5.220,284.63,040823,,,A*61
$GPRMC,220013.00,A,4955.52302,N,01055.20020,E,3.112,265.20,040823,,,A*69
$GPRMC,220014.00,A,4955.52252,N,01055.19935,E,2.398,255.36,040823,,,A*68
$GPRMC,220015.00,A,4955.52233,N,01055.19866,E,1.633,,040823,,,A*77
$GPRMC,220016.00,A,4955.52247,N,01055.19857,E,0.950,,040823,,,A*7E
$GPRMC,220017.00,A,4955.52246,N,01055.19846,E,0.776,,040823,,,A*74
$GPRMC,220018.00,A,4955.52244,N,01055.19841,E,0.657,,040823,,,A*7C
$GPRMC,220019.00,A,4955.52253,N,01055.19847,E,0.772,,040823,,,A*7B
$GPRMC,220020.00,A,4955.52248,N,01055.19856,E,0.628,,040823,,,A*75
$GPRMC,220021.00,A,4955.52249,N,01055.19860,E,0.611,,040823,,,A*7A
$GPRMC,220022.00,A,4955.52254,N,01055.19863,E,0.534,,040823,,,A*72
$GPRMC,220023.00,A,4955.52247,N,01055.19862,E,0.472,,040823,,,A*73
$GPRMC,220024.00,A,4955.52248,N,01055.19865,E,0.654,,040823,,,A*7A
$GPRMC,220025.00,A,4955.52264,N,01055.19867,E,1.003,,040823,,,A*72
$GPRMC,220026.00,A,4955.52249,N,01055.19863,E,0.456,,040823,,,A*7F
$GPRMC,220027.00,A,4955.52267,N,01055.19868,E,0.746,,040823,,,A*7B
$GPRMC,220028.00,A,4955.52265,N,01055.19870,E,0.516,,040823,,,A*78
$GPRMC,220029.00,A,4955.52260,N,01055.19882,E,0.505,,040823,,,A*73
$GPRMC,220030.00,A,4955.52259,N,01055.19886,E,0.484,,040823,,,A*7D
$GPRMC,220031.00,A,4955.52268,N,01055.19892,E,0.504,,040823,,,A*72
$GPRMC,220032.00,A,4955.52266,N,01055.19899,E,0.488,,040823,,,A*71
$GPRMC,220033.00,A,4955.52261,N,01055.19900,E,0.598,,040823,,,A*76
$GPRMC,220034.00,A,4955.52263,N,01055.19892,E,0.844,,040823,,,A*75
$GPRMC,220035.00,A,4955.52265,N,01055.19877,E,0.645,,040823,,,A*76
$GPRMC,220036.00,A,4955.52240,N,01055.19878,E,0.280,,040823,,,A*70
$GPRMC,220037.00,A,4955.52234,N,01055.19887,E,0.448,,040823,,,A*70
$GPRMC,220038.00,A,4955.52244,N,01055.19894,E,0.577,,040823,,,A*77
$GPRMC,220039.00,A,4955.52239,N,01055.19889,E,0.506,,040823,,,A*76
$GPRMC,220040.00,A,4955.52237,N,01055.19890,E,0.500,,040823,,,A*78
$GPRMC,220041.00,A,4955.52246,N,01055.19884,E,0.623,,040823,,,A*78
$GPRMC,220042.00,A,4955.52232,N,01055.19876,E,0.397,,040823,,,A*7F
$GPRMC,220043.00,A,4955.52158,N,01055.19783,E,1.883,242.37,040823,,,A*65
$GPRMC,220044.00,A,4955.51952,N,01055.19527,E,6.002,222.43,040823,,,A*6C
$GPRMC,220045.00,A,4955.51580,N,01055.19076,E,11.975,219.33,040823,,,A*5F
$GPRMC,220046.00,A,4955.51052,N,01055.18486,E,18.196,217.35,040823,,,A*58
$GPRMC,220047.00,A,4955.50381,N,01055.17738,E,24.198,217.13,040823,,,A*59
$GPRMC,220048.00,A,4955.49611,N,01055.16872,E,29.538,216.63,040823,,,A*57
$GPRMC,220049.00,A,4955.48757,N,01055.15925,E,34.116,215.62,040823,,,A*52
$GPRMC,220050.00,A,4955.47787,N,01055.14862,E,38.529,215.42,040823,,,A*5D
$GPRMC,220051.00,A,4955.46740,N,01055.13678,E,42.677,215.53,040823,,,A*51
$GPRMC,220052.00,A,4955.45580,N,01055.12338,E,46.995,215.88,040823,,,A*5E
$GPRMC,220053.00,A,4955.44378,N,01055.10880,E,50.769,216.59,040823,,,A*50
$GPRMC,220054.00,A,4955.43096,N,01055.09413,E,53.786,216.34,040823,,,A*54
$GPRMC,220055.00,A,4955.41741,N,01055.07877,E,56.931,216.23,040823,,,A*5B
$GPRMC,220056.00,A,4955.40320,N,01055.06271,E,59.871,216.28,040823,,,A*56
$GPRMC,220057.00,A,4955.38888,N,01055.04623,E,61.806,216.42,040823,,,A*57
$GPRMC,220058.00,A,4955.37420,N,01055.02968,E,63.082,216.43,040823,,,A*58
$GPRMC,220059.00,A,4955.35977,N,01055.01307,E,63.666,216.53,040823,,,A*59
$GPRMC,220100.00,A,4955.34545,N,01054.99663,E,63.661,216.49,040823,,,A*53
$GPRMC,220101.00,A,4955.33092,N,01054.98002,E,63.938,216.56,040823,,,A*57
$GPRMC,220102.00,A,4955.31662,N,01054.96355,E,63.695,216.87,040823,,,A*54
$GPRMC,220103.00,A,4955.30243,N,01054.94707,E,63.410,217.04,040823,,,A*57
$GPRMC,220104.00,A,4955.28829,N,01054.93081,E,63.277,217.01,040823,,,A*53
$GPRMC,220105.00,A,4955.27414,N,01054.91430,E,63.234,217.00,040823,,,A*55
$GPRMC,220106.00,A,4955.25978,N,01054.89816,E,63.332,216.69,040823,,,A*5B
$GPRMC,220107.00,A,4955.24554,N,01054.88199,E,63.254,216.78,040823,,,A*57
$GPRMC,220108.00,A,4955.23133,N,01054.86575,E,63.323,216.79,040823,,,A*52
$GPRMC,220109.00,A,4955.21711,N,01054.84950,E,63.321,216.66,040823,,,A*52
$GPRMC,220110.00,A,4955.20297,N,01054.83325,E,63.251,216.72,040823,,,A*5C
$GPRMC,220111.00,A,4955.18888,N,01054.81702,E,63.100,216.72,040823,,,A*56
$GPRMC,220112.00,A,4955.17486,N,01054.80064,E,63.214,217.07,040823,,,A*5B
$GPRMC,220113.00,A,4955.16089,N,01054.78429,E,63.089,217.14,040823,,,A*5E
$GPRMC,220114.00,A,4955.14678,N,01054.76780,E,63.202,217.21,040823,,,A*5A
$GPRMC,220115.00,A,4955.13260,N,01054.75159,E,63.110,216.88,040823,,,A*52
$GPRMC,220116.00,A,4955.11851,N,01054.73540,E,63.019,216.83,040823,,,A*52
$GPRMC,220117.00,A,4955.10429,N,01054.71918,E,63.188,216.82,040823,,,A*5A
$GPRMC,220118.00,A,4955.09013,N,01054.70315,E,62.964,216.52,040823,,,A*50
$GPRMC,220119.00,A,4955.07612,N,01054.68693,E,62.967,216.69,040823,,,A*51
$GPRMC,220120.00,A,4955.06283,N,01054.67167,E,60.509,216.58,040823,,,A*51
$GPRMC,220121.00,A,4955.05048,N,01054.65749,E,56.915,216.53,040823,,,A*51
$GPRMC,220122.00,A,4955.03909,N,01054.64433,E,52.786,216.57,040823,,,A*53
$GPRMC,220123.00,A,4955.02849,N,01054.63230,E,48.733,216.51,040823,,,A*57
$GPRMC,220124.00,A,4955.01891,N,01054.62127,E,44.632,216.53,040823,,,A*5C
$GPRMC,220125.00,A,4955.01022,N,01054.61147,E,40.447,216.28,040823,,,A*50
$GPRMC,220126.00,A,4955.00251,N,01054.60299,E,35.828,216.02,040823,,,A*5A
$GPRMC,220127.00,A,4954.99580,N,01054.59590,E,31.071,215.21,040823,,,A*57
$GPRMC,220128.00,A,4954.99007,N,01054.59053,E,26.072,212.39,040823,,,A*53
$GPRMC,220129.00,A,4954.98496,N,01054.58617,E,22.663,208.48,040823,,,A*57
$GPRMC,220130.00,A,4954.98028,N,01054.58320,E,19.736,202.97,040823,,,A*5E
$GPRMC,220131.00,A,4954.97621,N,01054.58131,E,16.905,198.31,040823,,,A*50
$GPRMC,220132.00,A,4954.97300,N,01054.58009,E,13.782,199.23,040823,,,A*59
$GPRMC,220133.00,A,4954.97040,N,01054.57788,E,11.862,209.05,040823,,,A*53
$GPRMC,220134.00,A,4954.96857,N,01054.57499,E,10.646,223.27,040823,,,A*59
$GPRMC,220135.00,A,4954.96769,N,01054.57162,E,9.790,237.55,040823,,,A*69
$GPRMC,220136.00,A,4954.96721,N,01054.56835,E,8.760,243.80,040823,,,A*69
$GPRMC,220137.00,A,4954.96847,N,01054.56782,E,4.916,252.82,040823,,,A*65
$GPRMC,220138.00,A,4954.97016,N,01054.56753,E,4.065,298.45,040823,,,A*6B
$GPRMC,220139.00,A,4954.97282,N,01054.56851,E,6.544,3.09,040823,,,A*64
$GPRMC,220140.00,A,4954.97597,N,01054.57087,E,10.174,26.31,040823,,,A*67
$GPRMC,220141.00,A,4954.97977,N,01054.57434,E,13.568,35.37,040823,,,A*66
$GPRMC,220142.00,A,4954.98357,N,01054.57834,E,15.618,37.63,040823,,,A*6F
$GPRMC,220143.00,A,4954.98775,N,01054.58296,E,17.536,37.86,040823,,,A*61
$GPRMC,220144.00,A,4954.99228,N,01054.58815,E,19.521,37.77,040823,,,A*6D
$GPRMC,220145.00,A,4954.99724,N,01054.59374,E,21.233,37.54,040823,,,A*66
$GPRMC,220146.00,A,4955.00236,N,01054.59963,E,22.638,37.38,040823,,,A*68
$GPRMC,220147.00,A,4955.00769,N,01054.60569,E,23.167,37.36,040823,,,A*68
$GPRMC,220148.00,A,4955.01288,N,01054.61163,E,22.893,37.14,040823,,,A*60
$GPRMC,220149.00,A,4955.01799,N,01054.61740,E,22.382,36.64,040823,,,A*6E
$GPRMC,220150.00,A,4955.02302,N,01054.62306,E,21.935,36.64,040823,,,A*63
$GPRMC,220151.00,A,4955.02780,N,01054.62849,E,21.273,36.71,040823,,,A*61
$GPRMC,220152.00,A,4955.03243,N,01054.63394,E,20.748,37.78,040823,,,A*67
$GPRMC,220153.00,A,4955.03691,N,01054.63941,E,20.308,38.54,040823,,,A*6E
$GPRMC,220154.00,A,4955.04127,N,01054.64472,E,19.882,38.37,040823,,,A*68
$GPRMC,220155.00,A,4955.04559,N,01054.64952,E,19.118,35.96,040823,,,A*67
$GPRMC,220156.00,A,4955.05002,N,01054.65299,E,17.714,27.61,040823,,,A*6C
$GPRMC,220157.00,A,4955.05467,N,01054.65468,E,16.991,14.00,040823,,,A*67
$GPRMC,220158.00,A,4955.05868,N,01054.65412,E,15.241,358.80,040823,,,A*50
$GPRMC,220159.00,A,4955.06366,N,01054.65114,E,17.059,338.93,040823,,,A*59
$GPRMC,220200.00,A,4955.06703,N,01054.64617,E,17.201,319.53,040823,,,A*54
$GPRMC,220201.00,A,4955.07038,N,01054.63966,E,19.084,308.42,040823,,,A*54
$GPRMC,220202.00,A,4955.07369,N,01054.63233,E,20.539,304.48,040823,,,A*54
$GPRMC,220203.00,A,4955.07733,N,01054.62441,E,21.951,304.57,040823,,,A*51
$GPRMC,220204.00,A,4955.08114,N,01054.61599,E,23.300,304.32,040823,,,A*52
$GPRMC,220205.00,A,4955.08535,N,01054.60707,E,24.755,305.17,040823,,,A*55
$GPRMC,220206.00,A,4955.08974,N,01054.59784,E,25.895,305.71,040823,,,A*5C
$GPRMC,220207.00,A,4955.09426,N,01054.58865,E,26.364,306.47,040823,,,A*57
$GPRMC,220208.00,A,4955.09904,N,01054.57899,E,27.427,306.57,040823,,,A*59
$GPRMC,220209.00,A,4955.10381,N,01054.56915,E,28.009,306.57,040823,,,A*54
$GPRMC,220210.00,A,4955.10861,N,01054.55917,E,28.396,306.88,040823,,,A*5F
$GPRMC,220211.00,A,4955.11326,N,01054.54928,E,28.369,306.62,040823,,,A*5E
$GPRMC,220212.00,A,4955.11764,N,01054.53939,E,28.120,305.70,040823,,,A*57
$GPRMC,220213.00,A,4955.12214,N,01054.52965,E,27.873,305.91,040823,,,A*50
$GPRMC,220214.00,A,4955.12647,N,01054.51941,E,28.363,303.62,040823,,,A*5F
$GPRMC,220215.00,A,4955.12973,N,01054.50888,E,28.212,298.27,040823,,,A*56
$GPRMC,220216.00,A,4955.13223,N,01054.49795,E,27.965,292.30,040823,,,A*59
$GPRMC,220217.00,A,4955.13380,N,01054.48645,E,27.944,285.07,040823,,,A*5C
$GPRMC,220218.00,A,4955.13471,N,01054.47470,E,27.639,278.87,040823,,,A*5E
$GPRMC,220219.00,A,4955.13517,N,01054.46257,E,27.878,275.14,040823,,,A*50
$GPRMC,220220.00,A,4955.13566,N,01054.45072,E,27.384,274.14,040823,,,A*53
$GPRMC,220221.00,A,4955.13628,N,01054.43929,E,26.404,274.66,040823,,,A*51
$GPRMC,220222.00,A,4955.13706,N,01054.42863,E,24.547,276.10,040823,,,A*56
$GPRMC,220223.00,A,4955.13848,N,01054.41927,E,22.019,281.48,040823,,,A*5D
$GPRMC,220224.00,A,4955.14072,N,01054.41116,E,20.126,290.12,040823,,,A*56
$GPRMC,220225.00,A,4955.14357,N,01054.40450,E,17.974,301.60,040823,,,A*52
$GPRMC,220226.00,A,4955.14661,N,01054.39899,E,16.469,309.76,040823,,,A*59
$GPRMC,220227.00,A,4955.15049,N,01054.39542,E,15.123,323.07,040823,,,A*58
$GPRMC,220228.00,A,4955.15413,N,01054.39242,E,14.444,329.99,040823,,,A*53
$GPRMC,220229.00,A,4955.15696,N,01054.38905,E,12.982,325.23,040823,,,A*58
$GPRMC,220230.00,A,4955.15923,N,01054.38483,E,12.795,313.24,040823,,,A*58
$GPRMC,220231.00,A,4955.16072,N,01054.38022,E,12.263,302.68,040823,,,A*5C
$GPRMC,220232.00,A,4955.16123,N,01054.37588,E,10.825,294.79,040823,,,A*54
$GPRMC,220233.00,A,4955.16086,N,01054.37216,E,9.083,285.47,040823,,,A*6A
$GPRMC,220234.00,A,4955.15948,N,01054.36900,E,7.979,270.54,040823,,,A*62
$GPRMC,220235.00,A,4955.15790,N,01054.36712,E,6.550,256.88,040823,,,A*66
$GPRMC,220236.00,A,4955.15684,N,01054.36569,E,5.579,246.63,040823,,,A*63
$GPRMC,220237.00,A,4955.15567,N,01054.36484,E,4.886,235.78,040823,,,A*6C
$GPRMC,220238.00,A,4955.15486,N,01054.36400,E,4.194,227.65,040823,,,A*64
$GPRMC,220239.00,A,4955.15493,N,01054.36406,E,2.305,,040823,,,A*71
$GPRMC,220240.00,A,4955.15483,N,01054.36283,E,2.128,,040823,,,A*78
$GPRMC,220241.00,A,4955.15443,N,01054.36223,E,1.960,,040823,,,A*78
$GPRMC,220242.00,A,4955.15477,N,01054.36142,E,1.204,,040823,,,A*71
$GPRMC,220243.00,A,4955.15401,N,01054.36152,E,1.305,,040823,,,A*70
$GPRMC,220244.00,A,4955.15441,N,01054.36109,E,0.934,,040823,,,A*74
$GPRMC,220245.00,A,4955.15432,N,01054.36154,E,0.484,,040823,,,A*7F
$GPRMC,220246.00,A,4955.15448,N,01054.36133,E,0.292,,040823,,,A*71
