$GPRMC,151331.00,A,4955.13786,N,01054.37385,E,0.173,,260923,,,A*71
$GPRMC,151332.00,A,4955.13759,N,01054.37521,E,0.356,,260923,,,A*7D
$GPRMC,151333.00,A,4955.13740,N,01054.37614,E,0.305,,260923,,,A*77
$GPRMC,151334.00,A,4955.13733,N,01054.37645,E,0.223,,260923,,,A*75
$GPRMC,151335.00,A,4955.13722,N,01054.37701,E,0.301,,260923,,,A*74
$GPRMC,151336.00,A,4955.13718,N,01054.37727,E,0.234,,260923,,,A*7D
$GPRMC,151337.00,A,4955.13716,N,01054.37743,E,0.093,,260923,,,A*7F
$GPRMC,151338.00,A,4955.13717,N,01054.37745,E,0.089,,260923,,,A*7C
$GPRMC,151339.00,A,4955.13704,N,01054.37812,E,0.351,,260923,,,A*74
$GPRMC,151340.00,A,4955.13707,N,01054.37826,E,0.286,,260923,,,A*75
$GPRMC,151341.00,A,4955.13704,N,01054.37850,E,0.172,,260923,,,A*7E
$GPRMC,151342.00,A,4955.13700,N,01054.37894,E,0.183,,260923,,,A*7F
$GPRMC,151343.00,A,4955.13701,N,01054.37905,E,0.031,,260923,,,A*7E
$GPRMC,151344.00,A,4955.13699,N,01054.37929,E,0.073,,260923,,,A*71
$GPRMC,151345.00,A,4955.13697,N,01054.37944,E,0.072,,260923,,,A*74
$GPRMC,151346.00,A,4955.13693,N,01054.37977,E,0.187,,260923,,,A*78
$GPRMC,151347.00,A,4955.13689,N,01054.37999,E,0.143,,260923,,,A*7A
$GPRMC,151348.00,A,4955.13682,N,01054.38041,E,0.094,,260923,,,A*76
$GPRMC,151349.00,A,4955.13682,N,01054.38055,E,0.111,,260923,,,A*7E
$GPRMC,151350.00,A,4955.13680,N,01054.38078,E,0.184,,260923,,,A*77
$GPRMC,151351.00,A,4955.13680,N,01054.38093,E,0.122,,260923,,,A*7F
$GPRMC,151352.00,A,4955.13681,N,01054.38105,E,0.141,,260923,,,A*76
$GPRMC,151353.00,A,4955.13682,N,01054.38118,E,0.176,,260923,,,A*7C
$GPRMC,151354.00,A,4955.13685,N,01054.38124,E,0.016,,260923,,,A*74
$GPRMC,151355.00,A,4955.13685,N,01054.38157,E,0.021,,260923,,,A*75
$GPRMC,151356.00,A,4955.13685,N,01054.38187,E,0.045,,260923,,,A*79
$GPRMC,151357.00,A,4955.13684,N,01054.38231,E,0.077,,260923,,,A*76
$GPRMC,151358.00,A,4955.13673,N,01054.38357,E,0.309,,260923,,,A*7A
$GPRMC,151359.00,A,4955.13667,N,01054.38444,E,0.162,,260923,,,A*74
$GPRMC,151400.00,A,4955.13669,N,01054.38449,E,0.120,,260923,,,A*7A
$GPRMC,151401.00,A,4955.13669,N,01054.38484,E,0.157,,260923,,,A*7A
$GPRMC,151402.00,A,4955.13638,N,01054.38651,E,0.473,,260923,,,A*74
$GPRMC,151403.00,A,4955.13633,N,01054.38726,E,0.420,,260923,,,A*79
$GPRMC,151404.00,A,4955.13637,N,01054.38712,E,0.472,,260923,,,A*7A
$GPRMC,151405.00,A,4955.13638,N,01054.38712,E,0.711,217.63,260923,,,A*6D
$GPRMC,151406.00,A,4955.13641,N,01054.38709,E,0.870,151.81,260923,,,A*6F
$GPRMC,151407.00,A,4955.13651,N,01054.38655,E,0.882,127.02,260923,,,A*60
$GPRMC,151408.00,A,4955.13661,N,01054.38610,E,0.694,,260923,,,A*7C
$GPRMC,151409.00,A,4955.13669,N,01054.38563,E,0.594,,260923,,,A*71
$GPRMC,151410.00,A,4955.13668,N,01054.38562,E,0.780,116.82,260923,,,A*6C
$GPRMC,151411.00,A,4955.13667,N,01054.38563,E,0.963,110.21,260923,,,A*6F
$GPRMC,151412.00,A,4955.13666,N,01054.38560,E,0.851,108.82,260923,,,A*6E
$GPRMC,151413.00,A,4955.13665,N,01054.38565,E,0.752,106.26,260923,,,A*65
$GPRMC,151414.00,A,4955.13663,N,01054.38577,E,0.856,103.70,260923,,,A*6A
$GPRMC,151415.00,A,4955.13661,N,01054.38595,E,0.922,101.81,260923,,,A*6B
$GPRMC,151416.00,A,4955.13661,N,01054.38597,E,0.812,101.43,260923,,,A*66
$GPRMC,151417.00,A,4955.13662,N,01054.38601,E,0.616,,260923,,,A*7B
$GPRMC,151418.00,A,4955.13663,N,01054.38602,E,0.449,,260923,,,A*7E
$GPRMC,151419.00,A,4955.13665,N,01054.38606,E,0.418,,260923,,,A*79
$GPRMC,151420.00,A,4955.13660,N,01054.38609,E,0.439,,260923,,,A*7A
$GPRMC,151421.00,A,4955.13656,N,01054.38619,E,0.305,,260923,,,A*77
$GPRMC,151422.00,A,4955.13651,N,01054.38621,E,0.226,,260923,,,A*78
$GPRMC,151423.00,A,4955.13655,N,01054.38616,E,0.187,,260923,,,A*71
$GPRMC,151424.00,A,4955.13657,N,01054.38606,E,0.263,,260923,,,A*7C
$GPRMC,151425.00,A,4955.13658,N,01054.38615,E,0.228,,260923,,,A*7F
$GPRMC,151426.00,A,4955.13657,N,01054.38623,E,0.168,,260923,,,A*71
$GPRMC,151427.00,A,4955.13657,N,01054.38624,E,0.008,,260923,,,A*70
$GPRMC,151428.00,A,4955.13657,N,01054.38620,E,0.113,,260923,,,A*70
$GPRMC,151429.00,A,4955.13659,N,01054.38616,E,0.148,,260923,,,A*74
$GPRMC,151430.00,A,4955.13657,N,01054.38634,E,0.174,,260923,,,A*7D
$GPRMC,151431.00,A,4955.13639,N,01054.38698,E,0.842,,260923,,,A*7E
$GPRMC,151432.00,A,4955.13657,N,01054.38733,E,0.764,,260923,,,A*7E
$GPRMC,151433.00,A,4955.13648,N,01054.38749,E,0.707,,260923,,,A*79
$GPRMC,151434.00,A,4955.13640,N,01054.38825,E,1.260,93.49,260923,,,A*5F
$GPRMC,151435.00,A,4955.13637,N,01054.38837,E,1.002,85.85,260923,,,A*5C
$GPRMC,151436.00,A,4955.13639,N,01054.38844,E,1.303,84.67,260923,,,A*5A
$GPRMC,151437.00,A,4955.13641,N,01054.38864,E,0.738,,260923,,,A*78
$GPRMC,151438.00,A,4955.13697,N,01054.38620,E,2.514,86.28,260923,,,A*56
$GPRMC,151439.00,A,4955.13807,N,01054.38008,E,2.943,86.63,260923,,,A*5D
$GPRMC,151440.00,A,4955.13845,N,01054.37861,E,3.426,82.87,260923,,,A*5C
$GPRMC,151441.00,A,4955.13885,N,01054.37811,E,3.177,78.59,260923,,,A*51
$GPRMC,151442.00,A,4955.13944,N,01054.37799,E,3.480,64.43,260923,,,A*5A
$GPRMC,151443.00,A,4955.14037,N,01054.37781,E,3.502,48.20,260923,,,A*58
$GPRMC,151444.00,A,4955.14138,N,01054.37737,E,3.042,31.06,260923,,,A*57
$GPRMC,151445.00,A,4955.14214,N,01054.37685,E,2.175,17.42,260923,,,A*53
$GPRMC,151446.00,A,4955.14258,N,01054.37637,E,1.411,11.73,260923,,,A*51
$GPRMC,151447.00,A,4955.14272,N,01054.37584,E,0.137,,260923,,,A*79
$GPRMC,151448.00,A,4955.14258,N,01054.37543,E,0.487,27.14,260923,,,A*55
$GPRMC,151449.00,A,4955.14217,N,01054.37535,E,1.878,153.55,260923,,,A*64
$GPRMC,151450.00,A,4955.14143,N,01054.37570,E,3.197,152.87,260923,,,A*6B
$GPRMC,151451.00,A,4955.14045,N,01054.37679,E,5.024,142.94,260923,,,A*6B
$GPRMC,151452.00,A,4955.13949,N,01054.37912,E,7.067,119.19,260923,,,A*66
$GPRMC,151453.00,A,4955.13868,N,01054.38246,E,8.632,107.31,260923,,,A*6C
$GPRMC,151454.00,A,4955.13814,N,01054.38651,E,10.198,99.95,260923,,,A*64
$GPRMC,151455.00,A,4955.13784,N,01054.39121,E,11.489,94.75,260923,,,A*65
$GPRMC,151456.00,A,4955.13769,N,01054.39652,E,12.844,91.83,260923,,,A*64
$GPRMC,151457.00,A,4955.13759,N,01054.40242,E,14.076,91.44,260923,,,A*69
$GPRMC,151458.00,A,4955.13748,N,01054.40892,E,15.661,91.59,260923,,,A*6C
$GPRMC,151459.00,A,4955.13734,N,01054.41638,E,18.045,91.62,260923,,,A*6C
$GPRMC,151500.00,A,4955.13714,N,01054.42485,E,20.329,92.23,260923,,,A*60
$GPRMC,151501.00,A,4955.13687,N,01054.43409,E,22.022,92.68,260923,,,A*6A
$GPRMC,151502.00,A,4955.13658,N,01054.44397,E,23.408,92.68,260923,,,A*61
$GPRMC,151503.00,A,4955.13627,N,01054.45428,E,24.290,92.78,260923,,,A*6B
$GPRMC,151504.00,A,4955.13585,N,01054.46483,E,24.718,93.81,260923,,,A*67
$GPRMC,151505.00,A,4955.13507,N,01054.47545,E,24.972,97.33,260923,,,A*69
$GPRMC,151506.00,A,4955.13373,N,01054.48605,E,25.241,102.23,260923,,,A*51
$GPRMC,151507.00,A,4955.13169,N,01054.49649,E,25.452,108.35,260923,,,A*59
$GPRMC,151508.00,A,4955.12894,N,01054.50658,E,25.510,114.39,260923,,,A*52
$GPRMC,151509.00,A,4955.12554,N,01054.51620,E,25.585,120.33,260923,,,A*5D
$GPRMC,151510.00,A,4955.12161,N,01054.52538,E,25.684,124.85,260923,,,A*55
$GPRMC,151511.00,A,4955.11742,N,01054.53432,E,25.669,126.55,260923,,,A*56
$GPRMC,151512.00,A,4955.11314,N,01054.54315,E,25.644,127.26,260923,,,A*5D
$GPRMC,151513.00,A,4955.10894,N,01054.55204,E,25.673,126.04,260923,,,A*5B
$GPRMC,151514.00,A,4955.10477,N,01054.56101,E,25.722,125.88,260923,,,A*5A
$GPRMC,151515.00,A,4955.10055,N,01054.56997,E,25.785,126.49,260923,,,A*5B
$GPRMC,151516.00,A,4955.09629,N,01054.57877,E,25.461,127.22,260923,,,A*56
$GPRMC,151517.00,A,4955.09211,N,01054.58725,E,24.569,127.71,260923,,,A*51
$GPRMC,151518.00,A,4955.08805,N,01054.59542,E,23.756,127.88,260923,,,A*5D
$GPRMC,151519.00,A,4955.08413,N,01054.60335,E,23.041,127.54,260923,,,A*5B
$GPRMC,151520.00,A,4955.08030,N,01054.61114,E,22.629,127.40,260923,,,A*58
$GPRMC,151521.00,A,4955.07650,N,01054.61894,E,22.727,127.15,260923,,,A*58
$GPRMC,151522.00,A,4955.07277,N,01054.62665,E,22.239,126.92,260923,,,A*5D
$GPRMC,151523.00,A,4955.06914,N,01054.63401,E,21.257,127.81,260923,,,A*5A
$GPRMC,151524.00,A,4955.06548,N,01054.64064,E,19.946,131.73,260923,,,A*52
$GPRMC,151525.00,A,4955.06162,N,01054.64615,E,18.500,139.54,260923,,,A*5D
$GPRMC,151526.00,A,4955.05734,N,01054.65019,E,17.930,151.86,260923,,,A*52
$GPRMC,151527.00,A,4955.05268,N,01054.65256,E,17.586,165.45,260923,,,A*5F
$GPRMC,151528.00,A,4955.04783,N,01054.65322,E,17.544,178.68,260923,,,A*5E
$GPRMC,151529.00,A,4955.04291,N,01054.65224,E,18.045,190.65,260923,,,A*5E
$GPRMC,151530.00,A,4955.03796,N,01054.64960,E,19.130,201.83,260923,,,A*58
$GPRMC,151531.00,A,4955.03305,N,01054.64547,E,20.493,210.72,260923,,,A*56
$GPRMC,151532.00,A,4955.02804,N,01054.64013,E,22.404,216.07,260923,,,A*52
$GPRMC,151533.00,A,4955.02273,N,01054.63409,E,24.224,216.50,260923,,,A*51
$GPRMC,151534.00,A,4955.01712,N,01054.62771,E,25.667,216.52,260923,,,A*5A
$GPRMC,151535.00,A,4955.01127,N,01054.62105,E,26.631,216.41,260923,,,A*5C
$GPRMC,151536.00,A,4955.00540,N,01054.61440,E,26.121,216.39,260923,,,A*55
$GPRMC,151537.00,A,4954.99967,N,01054.60792,E,25.389,216.33,260923,,,A*58
$GPRMC,151538.00,A,4954.99404,N,01054.60185,E,24.519,214.36,260923,,,A*56
$GPRMC,151539.00,A,4954.98871,N,01054.59635,E,22.608,213.60,260923,,,A*5F
$GPRMC,151540.00,A,4954.98393,N,01054.59157,E,19.719,212.68,260923,,,A*55
$GPRMC,151541.00,A,4954.97983,N,01054.58756,E,16.619,212.26,260923,,,A*52
$GPRMC,151542.00,A,4954.97625,N,01054.58428,E,14.369,210.21,260923,,,A*5D
$GPRMC,151543.00,A,4954.97294,N,01054.58178,E,12.883,204.62,260923,,,A*59
$GPRMC,151544.00,A,4954.97018,N,01054.57945,E,10.819,210.63,260923,,,A*54
$GPRMC,151545.00,A,4954.96821,N,01054.57681,E,9.307,225.26,260923,,,A*6A
$GPRMC,151546.00,A,4954.96733,N,01054.57359,E,8.134,253.32,260923,,,A*62
$GPRMC,151547.00,A,4954.96754,N,01054.57065,E,6.953,279.09,260923,,,A*69
$GPRMC,151548.00,A,4954.96862,N,01054.56858,E,6.195,311.40,260923,,,A*6B
$GPRMC,151549.00,A,4954.97036,N,01054.56781,E,6.821,345.36,260923,,,A*6F
$GPRMC,151550.00,A,4954.97268,N,01054.56876,E,9.665,17.88,260923,,,A*59
$GPRMC,151551.00,A,4954.97564,N,01054.57176,E,14.230,35.34,260923,,,A*64
$GPRMC,151552.00,A,4954.97957,N,01054.57635,E,19.230,36.44,260923,,,A*62
$GPRMC,151553.00,A,4954.98475,N,01054.58225,E,24.772,36.34,260923,,,A*61
$GPRMC,151554.00,A,4954.99114,N,01054.58960,E,30.354,36.47,260923,,,A*6E
$GPRMC,151555.00,A,4954.99873,N,01054.59838,E,35.714,36.70,260923,,,A*6B
$GPRMC,151556.00,A,4955.00745,N,01054.60846,E,40.687,36.52,260923,,,A*69
$GPRMC,151557.00,A,4955.01718,N,01054.61962,E,44.854,36.35,260923,,,A*62
$GPRMC,151558.00,A,4955.02776,N,01054.63169,E,48.405,36.26,260923,,,A*61
$GPRMC,151559.00,A,4955.03913,N,01054.64468,E,51.900,36.34,260923,,,A*6C
$GPRMC,151600.00,A,4955.05118,N,01054.65860,E,55.140,36.76,260923,,,A*6D
$GPRMC,151601.00,A,4955.06381,N,01054.67325,E,57.563,36.74,260923,,,A*60
$GPRMC,151602.00,A,4955.07702,N,01054.68851,E,60.135,36.62,260923,,,A*6E
$GPRMC,151603.00,A,4955.09080,N,01054.70436,E,62.530,36.53,260923,,,A*69
$GPRMC,151604.00,A,4955.10507,N,01054.72076,E,64.657,36.55,260923,,,A*6C
$GPRMC,151605.00,A,4955.11952,N,01054.73737,E,64.920,36.53,260923,,,A*6A
$GPRMC,151606.00,A,4955.13396,N,01054.75395,E,64.687,36.52,260923,,,A*60
$GPRMC,151607.00,A,4955.14835,N,01054.77041,E,64.349,36.36,260923,,,A*69
$GPRMC,151608.00,A,4955.16261,N,01054.78686,E,63.903,36.77,260923,,,A*6B
$GPRMC,151609.00,A,4955.17677,N,01054.80326,E,63.561,36.75,260923,,,A*6A
$GPRMC,151610.00,A,4955.19080,N,01054.81970,E,63.309,37.21,260923,,,A*62
$GPRMC,151611.00,A,4955.20480,N,01054.83607,E,63.153,36.94,260923,,,A*62
$GPRMC,151612.00,A,4955.21882,N,01054.85232,E,63.063,36.73,260923,,,A*61
$GPRMC,151613.00,A,4955.23289,N,01054.86841,E,62.983,36.30,260923,,,A*6F
$GPRMC,151614.00,A,4955.24699,N,01054.88440,E,62.957,36.10,260923,,,A*62
$GPRMC,151615.00,A,4955.26111,N,01054.90037,E,62.955,36.18,260923,,,A*61
$GPRMC,151616.00,A,4955.27521,N,01054.91635,E,62.942,36.20,260923,,,A*6C
$GPRMC,151617.00,A,4955.28934,N,01054.93232,E,63.081,36.06,260923,,,A*68
$GPRMC,151618.00,A,4955.30349,N,01054.94831,E,63.131,36.12,260923,,,A*6F
$GPRMC,151619.00,A,4955.31762,N,01054.96437,E,63.150,36.33,260923,,,A*6E
$GPRMC,151620.00,A,4955.33170,N,01054.98050,E,63.120,36.51,260923,,,A*6B
$GPRMC,151621.00,A,4955.34577,N,01054.99667,E,63.118,36.60,260923,,,A*64
$GPRMC,151622.00,A,4955.35980,N,01055.01287,E,63.062,36.70,260923,,,A*65
$GPRMC,151623.00,A,4955.37384,N,01055.02902,E,63.016,36.52,260923,,,A*6E
$GPRMC,151624.00,A,4955.38788,N,01055.04509,E,62.882,36.40,260923,,,A*68
$GPRMC,151625.00,A,4955.40190,N,01055.06113,E,62.800,36.44,260923,,,A*6A
$GPRMC,151626.00,A,4955.41592,N,01055.07716,E,62.842,36.40,260923,,,A*6E
$GPRMC,151627.00,A,4955.42951,N,01055.09269,E,60.009,36.39,260923,,,A*67
$GPRMC,151628.00,A,4955.44221,N,01055.10723,E,55.617,36.52,260923,,,A*63
$GPRMC,151629.00,A,4955.45378,N,01055.12075,E,50.852,37.23,260923,,,A*65
$GPRMC,151630.00,A,4955.46416,N,01055.13326,E,45.951,38.17,260923,,,A*6B
$GPRMC,151631.00,A,4955.47351,N,01055.14501,E,42.286,39.43,260923,,,A*6D
$GPRMC,151632.00,A,4955.48201,N,01055.15643,E,39.840,41.52,260923,,,A*62
$GPRMC,151633.00,A,4955.48962,N,01055.16723,E,36.125,42.84,260923,,,A*64
$GPRMC,151634.00,A,4955.49622,N,01055.17705,E,31.677,44.19,260923,,,A*69
$GPRMC,151635.00,A,4955.50177,N,01055.18537,E,26.229,43.89,260923,,,A*6C
$GPRMC,151636.00,A,4955.50620,N,01055.19206,E,20.688,44.27,260923,,,A*64
$GPRMC,151637.00,A,4955.50961,N,01055.19783,E,17.192,48.97,260923,,,A*68
$GPRMC,151638.00,A,4955.51203,N,01055.20321,E,14.476,57.98,260923,,,A*62
$GPRMC,151639.00,A,4955.51378,N,01055.20791,E,11.856,60.68,260923,,,A*61
$GPRMC,151640.00,A,4955.51552,N,01055.21102,E,8.712,44.20,260923,,,A*51
$GPRMC,151641.00,A,4955.51741,N,01055.21235,E,7.332,19.12,260923,,,A*57
$GPRMC,151642.00,A,4955.51914,N,01055.21205,E,6.289,348.73,260923,,,A*69
$GPRMC,151643.00,A,4955.52044,N,01055.21068,E,5.636,324.68,260923,,,A*6D
$GPRMC,151644.00,A,4955.52127,N,01055.20873,E,5.451,304.70,260923,,,A*65
$GPRMC,151645.00,A,4955.52156,N,01055.20658,E,5.083,285.46,260923,,,A*63
$GPRMC,151646.00,A,4955.52129,N,01055.20457,E,4.712,260.81,260923,,,A*6B
$GPRMC,151647.00,A,4955.52059,N,01055.20289,E,4.741,239.43,260923,,,A*6D
$GPRMC,151648.00,A,4955.51929,N,01055.20104,E,7.067,222.27,260923,,,A*61
$GPRMC,151649.00,A,4955.51723,N,01055.19850,E,10.575,218.55,260923,,,A*5A
$GPRMC,151650.00,A,4955.51402,N,01055.19466,E,16.308,217.59,260923,,,A*52
$GPRMC,151651.00,A,4955.50952,N,01055.18945,E,21.934,216.61,260923,,,A*5C
$GPRMC,151652.00,A,4955.50372,N,01055.18285,E,27.576,216.24,260923,,,A*5D
$GPRMC,151653.00,A,4955.49667,N,01055.17478,E,33.229,216.62,260923,,,A*54
$GPRMC,151654.00,A,4955.48843,N,01055.16529,E,38.546,216.71,260923,,,A*59
$GPRMC,151655.00,A,4955.47904,N,01055.15460,E,43.432,216.19,260923,,,A*5A
$GPRMC,151656.00,A,4955.46870,N,01055.14290,E,47.225,216.17,260923,,,A*58
$GPRMC,151657.00,A,4955.45755,N,01055.13018,E,51.002,216.50,260923,,,A*54
$GPRMC,151658.00,A,4955.44559,N,01055.11651,E,54.581,216.46,260923,,,A*51
$GPRMC,151659.00,A,4955.43297,N,01055.10206,E,57.373,216.45,260923,,,A*5E
$GPRMC,151700.00,A,4955.41972,N,01055.08691,E,60.124,216.44,260923,,,A*57
$GPRMC,151701.00,A,4955.40586,N,01055.07113,E,62.739,216.27,260923,,,A*5F
$GPRMC,151702.00,A,4955.39155,N,01055.05488,E,64.388,216.23,260923,,,A*51
$GPRMC,151703.00,A,4955.37707,N,01055.03846,E,64.741,216.20,260923,,,A*55
$GPRMC,151704.00,A,4955.36265,N,01055.02199,E,64.467,216.48,260923,,,A*51
$GPRMC,151705.00,A,4955.34831,N,01055.00568,E,63.972,216.20,260923,,,A*51
$GPRMC,151706.00,A,4955.33410,N,01054.98940,E,63.624,216.58,260923,,,A*5F
$GPRMC,151707.00,A,4955.32001,N,01054.97311,E,63.257,216.76,260923,,,A*56
$GPRMC,151708.00,A,4955.30594,N,01054.95692,E,63.072,216.58,260923,,,A*57
$GPRMC,151709.00,A,4955.29189,N,01054.94080,E,62.961,216.53,260923,,,A*53
$GPRMC,151710.00,A,4955.27788,N,01054.92463,E,62.960,216.76,260923,,,A*5B
$GPRMC,151711.00,A,4955.26389,N,01054.90844,E,62.911,216.75,260923,,,A*50
$GPRMC,151712.00,A,4955.24989,N,01054.89228,E,62.942,216.68,260923,,,A*59
$GPRMC,151713.00,A,4955.23584,N,01054.87619,E,62.956,216.39,260923,,,A*57
$GPRMC,151714.00,A,4955.22178,N,01054.86016,E,62.934,216.33,260923,,,A*50
$GPRMC,151715.00,A,4955.20774,N,01054.84405,E,63.024,216.59,260923,,,A*58
$GPRMC,151716.00,A,4955.19374,N,01054.82778,E,63.062,217.00,260923,,,A*55
$GPRMC,151717.00,A,4955.17972,N,01054.81156,E,63.090,216.63,260923,,,A*56
$GPRMC,151718.00,A,4955.16568,N,01054.79539,E,63.063,216.60,260923,,,A*5A
$GPRMC,151719.00,A,4955.15166,N,01054.77923,E,62.966,216.65,260923,,,A*53
$GPRMC,151720.00,A,4955.13765,N,01054.76308,E,62.946,216.66,260923,,,A*59
$GPRMC,151721.00,A,4955.12363,N,01054.74697,E,62.916,216.53,260923,,,A*59
$GPRMC,151722.00,A,4955.10958,N,01054.73089,E,62.991,216.46,260923,,,A*5F
$GPRMC,151723.00,A,4955.09554,N,01054.71476,E,63.039,216.58,260923,,,A*55
$GPRMC,151724.00,A,4955.08148,N,01054.69862,E,63.101,216.56,260923,,,A*5E
$GPRMC,151725.00,A,4955.06742,N,01054.68237,E,63.248,216.81,260923,,,A*52
$GPRMC,151726.00,A,4955.05370,N,01054.66644,E,61.205,216.88,260923,,,A*5B
$GPRMC,151727.00,A,4955.04085,N,01054.65175,E,56.007,216.25,260923,,,A*57
$GPRMC,151728.00,A,4955.02909,N,01054.63859,E,50.687,215.71,260923,,,A*58
$GPRMC,151729.00,A,4955.01847,N,01054.62697,E,45.285,215.05,260923,,,A*5D
$GPRMC,151730.00,A,4955.00896,N,01054.61673,E,40.291,214.71,260923,,,A*53
$GPRMC,151731.00,A,4955.00050,N,01054.60790,E,35.256,213.72,260923,,,A*50
$GPRMC,151732.00,A,4954.99298,N,01054.60042,E,30.975,212.24,260923,,,A*51
$GPRMC,151733.00,A,4954.98636,N,01054.59415,E,26.694,211.03,260923,,,A*5C
$GPRMC,151734.00,A,4954.98071,N,01054.58913,E,22.109,209.32,260923,,,A*58
$GPRMC,151735.00,A,4954.97604,N,01054.58561,E,17.322,204.33,260923,,,A*5A
$GPRMC,151736.00,A,4954.97227,N,01054.58321,E,13.611,201.31,260923,,,A*58
$GPRMC,151737.00,A,4954.96926,N,01054.58085,E,11.609,209.58,260923,,,A*53
$GPRMC,151738.00,A,4954.96735,N,01054.57784,E,9.468,232.07,260923,,,A*67
$GPRMC,151739.00,A,4954.96675,N,01054.57447,E,7.941,260.07,260923,,,A*60
$GPRMC,151740.00,A,4954.96727,N,01054.57166,E,6.654,291.36,260923,,,A*68
$GPRMC,151741.00,A,4954.96847,N,01054.57003,E,5.709,322.15,260923,,,A*60
$GPRMC,151742.00,A,4954.96981,N,01054.56958,E,4.888,346.81,260923,,,A*66
$GPRMC,151743.00,A,4954.97097,N,01054.57007,E,4.374,8.10,260923,,,A*63
$GPRMC,151744.00,A,4954.97187,N,01054.57107,E,4.085,30.12,260923,,,A*51
$GPRMC,151745.00,A,4954.97253,N,01054.57192,E,2.703,34.37,260923,,,A*5A
$GPRMC,151746.00,A,4954.97299,N,01054.57249,E,1.943,35.23,260923,,,A*57
$GPRMC,151747.00,A,4954.97330,N,01054.57291,E,1.416,36.25,260923,,,A*59
$GPRMC,151748.00,A,4954.97357,N,01054.57327,E,1.263,37.25,260923,,,A*5E
$GPRMC,151749.00,A,4954.97396,N,01054.57377,E,2.146,37.42,260923,,,A*51
$GPRMC,151750.00,A,4954.97459,N,01054.57454,E,3.276,37.17,260923,,,A*5A
$GPRMC,151751.00,A,4954.97587,N,01054.57604,E,6.875,36.57,260923,,,A*57
$GPRMC,151752.00,A,4954.97835,N,01054.57889,E,13.006,36.21,260923,,,A*62
$GPRMC,151753.00,A,4954.98230,N,01054.58338,E,19.669,36.06,260923,,,A*6D
$GPRMC,151754.00,A,4954.98760,N,01054.58942,E,25.411,36.31,260923,,,A*6B
$GPRMC,151755.00,A,4954.99414,N,01054.59689,E,30.954,36.24,260923,,,A*6E
$GPRMC,151756.00,A,4955.00190,N,01054.60568,E,36.207,36.10,260923,,,A*6F
$GPRMC,151757.00,A,4955.01072,N,01054.61585,E,41.100,36.82,260923,,,A*6F
$GPRMC,151758.00,A,4955.02045,N,01054.62722,E,45.108,37.05,260923,,,A*69
$GPRMC,151759.00,A,4955.03106,N,01054.63946,E,48.780,36.51,260923,,,A*69
$GPRMC,151800.00,A,4955.04252,N,01054.65254,E,52.321,36.29,260923,,,A*6A
$GPRMC,151801.00,A,4955.05469,N,01054.66648,E,55.550,36.51,260923,,,A*66
$GPRMC,151802.00,A,4955.06743,N,01054.68116,E,57.927,36.68,260923,,,A*6B
$GPRMC,151803.00,A,4955.08070,N,01054.69647,E,60.384,36.65,260923,,,A*6B
$GPRMC,151804.00,A,4955.09453,N,01054.71235,E,62.773,36.46,260923,,,A*6F
$GPRMC,151805.00,A,4955.10883,N,01054.72871,E,64.610,36.43,260923,,,A*69
$GPRMC,151806.00,A,4955.12323,N,01054.74528,E,64.680,36.66,260923,,,A*60
$GPRMC,151807.00,A,4955.13757,N,01054.76182,E,64.319,36.72,260923,,,A*61
$GPRMC,151808.00,A,4955.15183,N,01054.77823,E,63.920,36.53,260923,,,A*60
$GPRMC,151809.00,A,4955.16604,N,01054.79450,E,63.620,36.44,260923,,,A*65
$GPRMC,151810.00,A,4955.18017,N,01054.81073,E,63.361,36.61,260923,,,A*62
$GPRMC,151811.00,A,4955.19426,N,01054.82690,E,63.208,36.50,260923,,,A*60
$GPRMC,151812.00,A,4955.20835,N,01054.84297,E,63.056,36.31,260923,,,A*6C
$GPRMC,151813.00,A,4955.22242,N,01054.85903,E,62.983,36.43,260923,,,A*67
$GPRMC,151814.00,A,4955.23648,N,01054.87510,E,63.046,36.38,260923,,,A*6E
$GPRMC,151815.00,A,4955.25057,N,01054.89114,E,63.038,36.31,260923,,,A*6F
$GPRMC,151816.00,A,4955.26467,N,01054.90721,E,63.150,36.36,260923,,,A*68
$GPRMC,151817.00,A,4955.27873,N,01054.92341,E,63.205,36.74,260923,,,A*64
$GPRMC,151818.00,A,4955.29277,N,01054.93962,E,63.099,36.68,260923,,,A*6B
$GPRMC,151819.00,A,4955.30681,N,01054.95582,E,63.124,36.70,260923,,,A*65
$GPRMC,151820.00,A,4955.32085,N,01054.97202,E,63.095,36.71,260923,,,A*68
$GPRMC,151821.00,A,4955.33491,N,01054.98815,E,63.129,36.50,260923,,,A*6F
$GPRMC,151822.00,A,4955.34898,N,01055.00425,E,63.082,36.45,260923,,,A*65
$GPRMC,151823.00,A,4955.36308,N,01055.02029,E,63.057,36.23,260923,,,A*66
$GPRMC,151824.00,A,4955.37716,N,01055.03632,E,62.914,36.37,260923,,,A*6C
$GPRMC,151825.00,A,4955.39125,N,01055.05229,E,62.886,36.13,260923,,,A*61
$GPRMC,151826.00,A,4955.40542,N,01055.06806,E,62.914,35.47,260923,,,A*65
$GPRMC,151827.00,A,4955.41947,N,01055.08345,E,61.643,35.13,260923,,,A*61
$GPRMC,151828.00,A,4955.43282,N,01055.09794,E,57.511,34.92,260923,,,A*6E
$GPRMC,151829.00,A,4955.44518,N,01055.11136,E,53.064,35.06,260923,,,A*64
$GPRMC,151830.00,A,4955.45649,N,01055.12369,E,48.470,35.21,260923,,,A*6F
$GPRMC,151831.00,A,4955.46682,N,01055.13503,E,44.464,35.40,260923,,,A*6F
$GPRMC,151832.00,A,4955.47634,N,01055.14539,E,40.868,35.04,260923,,,A*6A
$GPRMC,151833.00,A,4955.48511,N,01055.15483,E,37.513,34.64,260923,,,A*67
$GPRMC,151834.00,A,4955.49313,N,01055.16332,E,33.929,34.21,260923,,,A*6B
$GPRMC,151835.00,A,4955.50034,N,01055.17089,E,30.340,34.05,260923,,,A*66
$GPRMC,151836.00,A,4955.50680,N,01055.17763,E,27.114,33.90,260923,,,A*61
$GPRMC,151837.00,A,4955.51240,N,01055.18343,E,23.062,33.71,260923,,,A*6B
$GPRMC,151838.00,A,4955.51692,N,01055.18811,E,18.163,33.67,260923,,,A*6C
$GPRMC,151839.00,A,4955.52020,N,01055.19208,E,13.747,40.28,260923,,,A*66
$GPRMC,151840.00,A,4955.52224,N,01055.19579,E,10.488,54.32,260923,,,A*62
$GPRMC,151841.00,A,4955.52324,N,01055.19932,E,8.504,70.94,260923,,,A*57
$GPRMC,151842.00,A,4955.52324,N,01055.20222,E,6.289,93.99,260923,,,A*58
$GPRMC,151843.00,A,4955.52259,N,01055.20413,E,4.756,114.52,260923,,,A*6A
$GPRMC,151844.00,A,4955.52169,N,01055.20510,E,3.735,136.64,260923,,,A*68
$GPRMC,151845.00,A,4955.52082,N,01055.20538,E,3.058,161.81,260923,,,A*62
$GPRMC,151846.00,A,4955.52009,N,01055.20511,E,2.735,183.15,260923,,,A*65
$GPRMC,151847.00,A,4955.51948,N,01055.20458,E,2.492,197.80,260923,,,A*60
$GPRMC,151848.00,A,4955.51895,N,01055.20403,E,2.269,206.96,260923,,,A*6E
$GPRMC,151849.00,A,4955.51838,N,01055.20340,E,2.648,212.83,260923,,,A*6E
$GPRMC,151850.00,A,4955.51779,N,01055.20272,E,2.633,215.01,260923,,,A*6D
$GPRMC,151851.00,A,4955.51720,N,01055.20204,E,2.698,216.00,260923,,,A*62
$GPRMC,151852.00,A,4955.51634,N,01055.20104,E,4.396,216.62,260923,,,A*6F
$GPRMC,151853.00,A,4955.51460,N,01055.19901,E,9.346,216.98,260923,,,A*6F
$GPRMC,151854.00,A,4955.51123,N,01055.19509,E,17.665,216.88,260923,,,A*54
$GPRMC,151855.00,A,4955.50616,N,01055.18926,E,24.934,216.58,260923,,,A*53
$GPRMC,151856.00,A,4955.49968,N,01055.18178,E,30.905,216.78,260923,,,A*58
$GPRMC,151857.00,A,4955.49197,N,01055.17283,E,36.320,216.90,260923,,,A*54
$GPRMC,151858.00,A,4955.48313,N,01055.16263,E,41.223,216.58,260923,,,A*5D
$GPRMC,151859.00,A,4955.47330,N,01055.15130,E,45.364,216.68,260923,,,A*51
$GPRMC,151900.00,A,4955.46263,N,01055.13895,E,49.155,216.78,260923,,,A*57
$GPRMC,151901.00,A,4955.45113,N,01055.12562,E,52.845,216.83,260923,,,A*53
$GPRMC,151902.00,A,4955.43884,N,01055.11145,E,56.195,216.60,260923,,,A*5E
$GPRMC,151903.00,A,4955.42594,N,01055.09656,E,58.772,216.70,260923,,,A*5E
$GPRMC,151904.00,A,4955.41243,N,01055.08099,E,61.484,216.61,260923,,,A*53
$GPRMC,151905.00,A,4955.39833,N,01055.06480,E,64.051,216.48,260923,,,A*50
$GPRMC,151906.00,A,4955.38391,N,01055.04832,E,64.809,216.39,260923,,,A*55
$GPRMC,151907.00,A,4955.36949,N,01055.03187,E,64.471,216.31,260923,,,A*5E
$GPRMC,151908.00,A,4955.35519,N,01055.01547,E,64.021,216.52,260923,,,A*55
$GPRMC,151909.00,A,4955.34099,N,01054.99914,E,63.615,216.58,260923,,,A*5E
$GPRMC,151910.00,A,4955.32688,N,01054.98289,E,63.313,216.57,260923,,,A*54
$GPRMC,151911.00,A,4955.31285,N,01054.96667,E,63.048,216.74,260923,,,A*59
$GPRMC,151912.00,A,4955.29885,N,01054.95044,E,62.994,216.77,260923,,,A*57
$GPRMC,151913.00,A,4955.28486,N,01054.93425,E,62.968,216.69,260923,,,A*51
$GPRMC,151914.00,A,4955.27085,N,01054.91807,E,63.000,216.69,260923,,,A*56
$GPRMC,151915.00,A,4955.25685,N,01054.90186,E,63.014,216.79,260923,,,A*56
$GPRMC,151916.00,A,4955.24285,N,01054.88560,E,63.034,216.84,260923,,,A*55
$GPRMC,151917.00,A,4955.22885,N,01054.86936,E,63.079,216.79,260923,,,A*52
$GPRMC,151918.00,A,4955.21485,N,01054.85309,E,63.069,216.87,260923,,,A*57
$GPRMC,151919.00,A,4955.20087,N,01054.83680,E,63.057,216.96,260923,,,A*5E
$GPRMC,151920.00,A,4955.18686,N,01054.82057,E,63.041,216.71,260923,,,A*5B
$GPRMC,151921.00,A,4955.17283,N,01054.80442,E,63.004,216.53,260923,,,A*57
$GPRMC,151922.00,A,4955.15879,N,01054.78832,E,62.936,216.48,260923,,,A*56
$GPRMC,151923.00,A,4955.14475,N,01054.77224,E,62.900,216.49,260923,,,A*50
$GPRMC,151924.00,A,4955.13069,N,01054.75620,E,62.925,216.31,260923,,,A*53
$GPRMC,151925.00,A,4955.11662,N,01054.74018,E,62.992,216.30,260923,,,A*5C
$GPRMC,151926.00,A,4955.10254,N,01054.72410,E,63.042,216.42,260923,,,A*55
$GPRMC,151927.00,A,4955.08849,N,01054.70793,E,63.110,216.69,260923,,,A*5E
$GPRMC,151928.00,A,4955.07444,N,01054.69173,E,63.148,216.61,260923,,,A*5A
$GPRMC,151929.00,A,4955.06034,N,01054.67565,E,63.075,216.26,260923,,,A*58
$GPRMC,151930.00,A,4955.04618,N,01054.65975,E,63.043,215.76,260923,,,A*56
$GPRMC,151931.00,A,4955.03228,N,01054.64423,E,61.193,215.80,260923,,,A*5F
$GPRMC,151932.00,A,4955.01925,N,01054.62993,E,56.019,215.06,260923,,,A*51
$GPRMC,151933.00,A,4955.00758,N,01054.61741,E,49.088,214.52,260923,,,A*51
$GPRMC,151934.00,A,4954.99746,N,01054.60686,E,41.840,213.61,260923,,,A*50
$GPRMC,151935.00,A,4954.98891,N,01054.59825,E,34.633,212.69,260923,,,A*59
$GPRMC,151936.00,A,4954.98202,N,01054.59143,E,27.266,212.52,260923,,,A*5D
$GPRMC,151937.00,A,4954.97663,N,01054.58618,E,21.170,211.83,260923,,,A*55
$GPRMC,151938.00,A,4954.97252,N,01054.58226,E,15.838,211.46,260923,,,A*5E
$GPRMC,151939.00,A,4954.96961,N,01054.57930,E,11.186,214.28,260923,,,A*53
$GPRMC,151940.00,A,4954.96788,N,01054.57664,E,7.865,229.02,260923,,,A*6F
$GPRMC,151941.00,A,4954.96713,N,01054.57396,E,6.496,249.71,260923,,,A*67
$GPRMC,151942.00,A,4954.96709,N,01054.57147,E,5.676,266.88,260923,,,A*65
$GPRMC,151943.00,A,4954.96752,N,01054.56963,E,4.226,288.40,260923,,,A*61
$GPRMC,151944.00,A,4954.96818,N,01054.56853,E,3.220,304.18,260923,,,A*6C
$GPRMC,151945.00,A,4954.96892,N,01054.56802,E,2.893,325.97,260923,,,A*6C
$GPRMC,151946.00,A,4954.96966,N,01054.56797,E,2.665,344.30,260923,,,A*6B
$GPRMC,151947.00,A,4954.97029,N,01054.56837,E,2.465,6.13,260923,,,A*6A
$GPRMC,151948.00,A,4954.97078,N,01054.56888,E,2.016,22.49,260923,,,A*5C
$GPRMC,151949.00,A,4954.97112,N,01054.56927,E,1.348,27.09,260923,,,A*5E
$GPRMC,151950.00,A,4954.97143,N,01054.56965,E,1.467,32.50,260923,,,A*56
$GPRMC,151951.00,A,4954.97191,N,01054.57017,E,2.404,34.51,260923,,,A*54
$GPRMC,151952.00,A,4954.97309,N,01054.57145,E,6.423,35.03,260923,,,A*55
$GPRMC,151953.00,A,4954.97580,N,01054.57448,E,14.390,35.81,260923,,,A*6D
$GPRMC,151954.00,A,4954.98025,N,01054.57954,E,22.221,36.32,260923,,,A*6A
$GPRMC,151955.00,A,4954.98630,N,01054.58642,E,29.039,36.26,260923,,,A*6B
$GPRMC,151956.00,A,4954.99357,N,01054.59470,E,33.983,36.33,260923,,,A*68
$GPRMC,151957.00,A,4955.00199,N,01054.60420,E,39.019,35.93,260923,,,A*6E
$GPRMC,151958.00,A,4955.01149,N,01054.61488,E,43.668,35.93,260923,,,A*63
$GPRMC,151959.00,A,4955.02185,N,01054.62656,E,47.277,35.98,260923,,,A*66
$GPRMC,152000.00,A,4955.03303,N,01054.63918,E,50.935,36.07,260923,,,A*67
$GPRMC,152001.00,A,4955.04498,N,01054.65270,E,54.373,36.12,260923,,,A*6F
$GPRMC,152002.00,A,4955.05755,N,01054.66701,E,57.028,36.31,260923,,,A*60
$GPRMC,152003.00,A,4955.07066,N,01054.68207,E,59.584,36.63,260923,,,A*63
$GPRMC,152004.00,A,4955.08430,N,01054.69783,E,62.036,36.72,260923,,,A*60
$GPRMC,152005.00,A,4955.09841,N,01054.71418,E,64.079,36.75,260923,,,A*68
$GPRMC,152006.00,A,4955.11269,N,01054.73064,E,64.171,36.55,260923,,,A*64
$GPRMC,152007.00,A,4955.12699,N,01054.74694,E,63.877,36.21,260923,,,A*68
$GPRMC,152008.00,A,4955.14125,N,01054.76310,E,63.539,36.15,260923,,,A*6A
$GPRMC,152009.00,A,4955.15545,N,01054.77919,E,63.378,36.18,260923,,,A*64
$GPRMC,152010.00,A,4955.16960,N,01054.79530,E,63.192,36.38,260923,,,A*69
$GPRMC,152011.00,A,4955.18369,N,01054.81139,E,63.069,36.38,260923,,,A*6A
$GPRMC,152012.00,A,4955.19776,N,01054.82751,E,63.042,36.55,260923,,,A*6B
$GPRMC,152013.00,A,4955.21178,N,01054.84367,E,63.009,36.66,260923,,,A*61
$GPRMC,152014.00,A,4955.22582,N,01054.85982,E,62.992,36.56,260923,,,A*6D
$GPRMC,152015.00,A,4955.23985,N,01054.87593,E,62.912,36.52,260923,,,A*64
$GPRMC,152016.00,A,4955.25392,N,01054.89202,E,63.018,36.39,260923,,,A*63
$GPRMC,152017.00,A,4955.26801,N,01054.90811,E,63.103,36.40,260923,,,A*65
$GPRMC,152018.00,A,4955.28209,N,01054.92428,E,63.135,36.60,260923,,,A*65
$GPRMC,152019.00,A,4955.29614,N,01054.94053,E,63.149,36.83,260923,,,A*65
$GPRMC,152020.00,A,4955.31019,N,01054.95675,E,63.121,36.64,260923,,,A*69
$GPRMC,152021.00,A,4955.32426,N,01054.97292,E,63.118,36.54,260923,,,A*65
$GPRMC,152022.00,A,4955.33833,N,01054.98908,E,63.111,36.52,260923,,,A*67
$GPRMC,152023.00,A,4955.35242,N,01055.00519,E,63.081,36.36,260923,,,A*6A
$GPRMC,152024.00,A,4955.36651,N,01055.02128,E,62.999,36.40,260923,,,A*6C
$GPRMC,152025.00,A,4955.38059,N,01055.03730,E,62.863,36.24,260923,,,A*65
$GPRMC,152026.00,A,4955.39469,N,01055.05325,E,62.895,36.06,260923,,,A*6F
$GPRMC,152027.00,A,4955.40880,N,01055.06922,E,62.953,36.16,260923,,,A*6F
$GPRMC,152028.00,A,4955.42290,N,01055.08521,E,62.983,36.22,260923,,,A*62
$GPRMC,152029.00,A,4955.43647,N,01055.10063,E,59.680,36.22,260923,,,A*62
$GPRMC,152030.00,A,4955.44922,N,01055.11503,E,55.720,36.01,260923,,,A*65
$GPRMC,152031.00,A,4955.46107,N,01055.12836,E,51.568,35.92,260923,,,A*62
$GPRMC,152032.00,A,4955.47193,N,01055.14056,E,46.967,35.90,260923,,,A*62
$GPRMC,152033.00,A,4955.48170,N,01055.15151,E,42.024,35.82,260923,,,A*6F
$GPRMC,152034.00,A,4955.49038,N,01055.16115,E,36.992,35.51,260923,,,A*6E
$GPRMC,152035.00,A,4955.49797,N,01055.16942,E,31.978,34.86,260923,,,A*6F
$GPRMC,152036.00,A,4955.50452,N,01055.17631,E,27.075,33.73,260923,,,A*6A
$GPRMC,152037.00,A,4955.51006,N,01055.18194,E,22.579,32.91,260923,,,A*69
$GPRMC,152038.00,A,4955.51479,N,01055.18649,E,19.004,31.18,260923,,,A*68
$GPRMC,152039.00,A,4955.51876,N,01055.19027,E,15.877,31.62,260923,,,A*68
$GPRMC,152040.00,A,4955.52180,N,01055.19381,E,12.861,39.29,260923,,,A*6D
$GPRMC,152041.00,A,4955.52361,N,01055.19748,E,10.067,58.38,260923,,,A*6B
$GPRMC,152042.00,A,4955.52422,N,01055.20088,E,7.633,80.33,260923,,,A*56
$GPRMC,152043.00,A,4955.52392,N,01055.20366,E,6.311,103.08,260923,,,A*6E
$GPRMC,152044.00,A,4955.52304,N,01055.20553,E,5.091,125.56,260923,,,A*61
$GPRMC,152045.00,A,4955.52188,N,01055.20616,E,4.466,158.40,260923,,,A*64
$GPRMC,152046.00,A,4955.52077,N,01055.20584,E,4.120,185.57,260923,,,A*6F
$GPRMC,152047.00,A,4955.51980,N,01055.20503,E,3.883,203.46,260923,,,A*69
$GPRMC,152048.00,A,4955.51901,N,01055.20418,E,3.292,210.21,260923,,,A*6D
$GPRMC,152049.00,A,4955.51839,N,01055.20351,E,2.518,212.86,260923,,,A*67
$GPRMC,152050.00,A,4955.51785,N,01055.20292,E,2.278,214.38,260923,,,A*6B
$GPRMC,152051.00,A,4955.51745,N,01055.20246,E,1.592,215.22,260923,,,A*65
$GPRMC,152052.00,A,4955.51720,N,01055.20217,E,0.901,215.62,260923,,,A*62
$GPRMC,152053.00,A,4955.51711,N,01055.20205,E,0.285,,260923,,,A*79
$GPRMC,152054.00,A,4955.51709,N,01055.20204,E,0.017,,260923,,,A*7F
$GPRMC,152055.00,A,4955.51710,N,01055.20204,E,0.016,,260923,,,A*77
$GPRMC,152056.00,A,4955.51710,N,01055.20204,E,0.032,,260923,,,A*72
$GPRMC,152057.00,A,4955.51711,N,01055.20204,E,0.020,,260923,,,A*71
$GPRMC,152058.00,A,4955.51711,N,01055.20203,E,0.005,,260923,,,A*7E
$GPRMC,152059.00,A,4955.51711,N,01055.20203,E,0.018,,260923,,,A*73
$GPRMC,152100.00,A,4955.51711,N,01055.20202,E,0.006,,260923,,,A*70
$GPRMC,152101.00,A,4955.51711,N,01055.20201,E,0.020,,260923,,,A*76
$GPRMC,152102.00,A,4955.51698,N,01055.20183,E,0.938,217.05,260923,,,A*63
$GPRMC,152103.00,A,4955.51622,N,01055.20096,E,4.489,216.16,260923,,,A*66
$GPRMC,152104.00,A,4955.51406,N,01055.19847,E,11.892,216.50,260923,,,A*5B
$GPRMC,152105.00,A,4955.51015,N,01055.19395,E,20.023,216.70,260923,,,A*5A
$GPRMC,152106.00,A,4955.50465,N,01055.18756,E,26.735,216.83,260923,,,A*5B
$GPRMC,152107.00,A,4955.49786,N,01055.17970,E,32.180,216.71,260923,,,A*59
$GPRMC,152108.00,A,4955.48986,N,01055.17047,E,37.542,216.61,260923,,,A*5A
$GPRMC,152109.00,A,4955.48074,N,01055.15990,E,42.547,216.81,260923,,,A*57
$GPRMC,152110.00,A,4955.47069,N,01055.14825,E,46.412,216.72,260923,,,A*5B
$GPRMC,152111.00,A,4955.45976,N,01055.13561,E,50.339,216.70,260923,,,A*5E
$GPRMC,152112.00,A,4955.44801,N,01055.12203,E,53.941,216.65,260923,,,A*5D
$GPRMC,152113.00,A,4955.43555,N,01055.10764,E,56.920,216.73,260923,,,A*54
$GPRMC,152114.00,A,4955.42248,N,01055.09251,E,59.649,216.72,260923,,,A*5C
$GPRMC,152115.00,A,4955.40881,N,01055.07669,E,62.321,216.74,260923,,,A*54
$GPRMC,152116.00,A,4955.39455,N,01055.06020,E,64.899,216.71,260923,,,A*5D
$GPRMC,152117.00,A,4955.37973,N,01055.04319,E,67.191,216.37,260923,,,A*50
$GPRMC,152118.00,A,4955.36466,N,01055.02608,E,67.423,216.13,260923,,,A*5E
$GPRMC,152119.00,A,4955.34971,N,01055.00898,E,66.812,216.52,260923,,,A*59
$GPRMC,152120.00,A,4955.33497,N,01054.99199,E,65.959,216.65,260923,,,A*51
$GPRMC,152121.00,A,4955.32044,N,01054.97520,E,65.076,216.70,260923,,,A*53
$GPRMC,152122.00,A,4955.30606,N,01054.95866,E,64.333,216.47,260923,,,A*58
$GPRMC,152123.00,A,4955.29182,N,01054.94222,E,63.854,216.74,260923,,,A*5C
$GPRMC,152124.00,A,4955.27767,N,01054.92587,E,63.574,216.69,260923,,,A*55
$GPRMC,152125.00,A,4955.26354,N,01054.90959,E,63.411,216.62,260923,,,A*55
$GPRMC,152126.00,A,4955.24944,N,01054.89337,E,63.241,216.59,260923,,,A*5E
$GPRMC,152127.00,A,4955.23539,N,01054.87714,E,63.150,216.74,260923,,,A*59
$GPRMC,152128.00,A,4955.22139,N,01054.86084,E,63.072,216.99,260923,,,A*5E
$GPRMC,152129.00,A,4955.20740,N,01054.84458,E,63.054,216.76,260923,,,A*57
$GPRMC,152130.00,A,4955.19338,N,01054.82839,E,62.991,216.60,260923,,,A*55
$GPRMC,152131.00,A,4955.17933,N,01054.81229,E,62.961,216.43,260923,,,A*5D
$GPRMC,152132.00,A,4955.16531,N,01054.79614,E,62.963,216.67,260923,,,A*58
$GPRMC,152133.00,A,4955.15129,N,01054.77998,E,62.970,216.58,260923,,,A*5C
$GPRMC,152134.00,A,4955.13722,N,01054.76391,E,62.992,216.29,260923,,,A*58
$GPRMC,152135.00,A,4955.12315,N,01054.74782,E,63.033,216.45,260923,,,A*55
$GPRMC,152136.00,A,4955.10910,N,01054.73169,E,63.052,216.54,260923,,,A*58
$GPRMC,152137.00,A,4955.09507,N,01054.71549,E,63.045,216.75,260923,,,A*5A
$GPRMC,152138.00,A,4955.08105,N,01054.69933,E,62.985,216.57,260923,,,A*5E
$GPRMC,152139.00,A,4955.06700,N,01054.68317,E,63.092,216.58,260923,,,A*5E
$GPRMC,152140.00,A,4955.05294,N,01054.66707,E,62.986,216.40,260923,,,A*54
$GPRMC,152141.00,A,4955.03939,N,01054.65181,E,59.307,215.82,260923,,,A*52
$GPRMC,152142.00,A,4955.02683,N,01054.63805,E,53.792,215.01,260923,,,A*54
$GPRMC,152143.00,A,4955.01543,N,01054.62594,E,48.140,214.13,260923,,,A*5C
$GPRMC,152144.00,A,4955.00524,N,01054.61555,E,42.230,213.00,260923,,,A*5E
$GPRMC,152145.00,A,4954.99639,N,01054.60665,E,36.281,212.97,260923,,,A*56
$GPRMC,152146.00,A,4954.98900,N,01054.59894,E,30.378,214.45,260923,,,A*53
$GPRMC,152147.00,A,4954.98311,N,01054.59246,E,24.236,215.83,260923,,,A*58
$GPRMC,152148.00,A,4954.97853,N,01054.58744,E,18.502,214.94,260923,,,A*5B
$GPRMC,152149.00,A,4954.97482,N,01054.58404,E,14.347,208.33,260923,,,A*56
$GPRMC,152150.00,A,4954.97171,N,01054.58202,E,11.345,200.21,260923,,,A*5B
$GPRMC,152151.00,A,4954.96943,N,01054.58027,E,8.360,209.27,260923,,,A*67
$GPRMC,152152.00,A,4954.96788,N,01054.57838,E,6.704,220.88,260923,,,A*62
$GPRMC,152153.00,A,4954.96700,N,01054.57634,E,5.399,236.67,260923,,,A*64
